{
  "type": "FeatureCollection",
  "features": [
    {
      "type": "Feature",
      "properties": {
        "id": "auctiondata",
        "name": "Auctiondata",
        "industry": "eCommerce"
      }
    },
    {
      "type": "Feature",
      "properties": {
        "id": "bjooli",
        "name": "Bjooli",
        "industry": "eCommerce",
        "lon": 52.5264685,
        "lat": 13.3989779,
        "address": "Sophienstraße 33, 10178 Berlin, Germany"
      },
      "geometry": {
        "type": "Point",
        "coordinates": [13.3989779, 52.5264685]
      }
    },
    {
      "type": "Feature",
      "properties": {
        "id": "bonial",
        "name": "Bonial",
        "industry": "eCommerce",
        "lon": 52.5116936,
        "lat": 13.4527335,
        "address": "Warschauer Str. 70A, 10243 Berlin, Germany"
      },
      "geometry": {
        "type": "Point",
        "coordinates": [13.4527335, 52.5116936]
      }
    },
    {
      "type": "Feature",
      "properties": {
        "id": "bonagora",
        "name": "Bonagora",
        "industry": "eCommerce",
        "lon": 52.5317477,
        "lat": 13.3836194,
        "address": "Zinnowitzer Str. 8, 10115 Berlin, Germany"
      },
      "geometry": {
        "type": "Point",
        "coordinates": [13.3836194, 52.5317477]
      }
    },
    {
      "type": "Feature",
      "properties": {
        "id": "byebuy",
        "name": "ByeBuy",
        "industry": "eCommerce",
        "lon": 52.51436210000001,
        "lat": 13.4214494,
        "address": "Holzmarktstraße 11, 10179 Berlin, Germany"
      },
      "geometry": {
        "type": "Point",
        "coordinates": [13.4214494, 52.51436210000001]
      }
    },
    {
      "type": "Feature",
      "properties": {
        "id": "coffee-circle",
        "name": "Coffee Circle",
        "industry": "eCommerce",
        "lon": 52.5442163,
        "lat": 13.3674443,
        "address": "Lindower Str. 18, 13347 Berlin, Germany"
      },
      "geometry": {
        "type": "Point",
        "coordinates": [13.3674443, 52.5442163]
      }
    },
    {
      "type": "Feature",
      "properties": {
        "id": "dawanda",
        "name": "DaWanda",
        "industry": "eCommerce",
        "lon": 52.5056816,
        "lat": 13.2992331,
        "address": "Windscheidstraße 18, 10627 Berlin, Germany"
      },
      "geometry": {
        "type": "Point",
        "coordinates": [13.2992331, 52.5056816]
      }
    },
    {
      "type": "Feature",
      "properties": {
        "id": "discounto",
        "name": "Discounto",
        "industry": "eCommerce",
        "lon": 52.4997176,
        "lat": 13.2933024,
        "address": "Katharinenstraße 9, 10711 Berlin, Germany"
      },
      "geometry": {
        "type": "Point",
        "coordinates": [13.2933024, 52.4997176]
      }
    },
    {
      "type": "Feature",
      "properties": {
        "id": "erento",
        "name": "Erento",
        "industry": "eCommerce",
        "lon": 52.5017395,
        "lat": 13.4347561,
        "address": "Wrangelstraße 100, 10997 Berlin, Germany"
      },
      "geometry": {
        "type": "Point",
        "coordinates": [13.4347561, 52.5017395]
      }
    },
    {
      "type": "Feature",
      "properties": {
        "id": "flaconi",
        "name": "Flaconi",
        "industry": "eCommerce",
        "lon": 52.520516,
        "lat": 13.327445,
        "address": "Franklinstraße 13, 10587 Berlin, Germany"
      },
      "geometry": {
        "type": "Point",
        "coordinates": [13.327445, 52.520516]
      }
    },
    {
      "type": "Feature",
      "properties": {
        "id": "home-24",
        "name": "Home 24",
        "industry": "eCommerce",
        "lon": 52.5321601,
        "lat": 13.4270243,
        "address": "Greifswalder Str. 212-213, 10405 Berlin, Germany"
      },
      "geometry": {
        "type": "Point",
        "coordinates": [13.4270243, 52.5321601]
      }
    },
    {
      "type": "Feature",
      "properties": {
        "id": "junique",
        "name": "Junique",
        "industry": "eCommerce",
        "lon": 52.5090673,
        "lat": 13.4232941,
        "address": "Köpenicker Str. 126, 10179 Berlin, Germany"
      },
      "geometry": {
        "type": "Point",
        "coordinates": [13.4232941, 52.5090673]
      }
    },
    {
      "type": "Feature",
      "properties": {
        "id": "kw-commerce",
        "name": "KW-Commerce",
        "industry": "eCommerce",
        "lon": 52.51455,
        "lat": 13.39698,
        "address": "Jägerstraße 41, 10117 Berlin, Germany"
      },
      "geometry": {
        "type": "Point",
        "coordinates": [13.39698, 52.51455]
      }
    },
    {
      "type": "Feature",
      "properties": {
        "id": "lesara",
        "name": "Lesara",
        "industry": "eCommerce",
        "lon": 52.516115,
        "lat": 13.416378,
        "address": "Schicklerstraße 5-7, 10179 Berlin, Germany"
      },
      "geometry": {
        "type": "Point",
        "coordinates": [13.416378, 52.516115]
      }
    },
    {
      "type": "Feature",
      "properties": {
        "id": "lyke",
        "name": "Lyke",
        "industry": "eCommerce",
        "lon": 52.4908884,
        "lat": 13.6297469,
        "address": "Grunowstraße 39, 12623 Berlin, Germany"
      },
      "geometry": {
        "type": "Point",
        "coordinates": [13.6297469, 52.4908884]
      }
    },
    {
      "type": "Feature",
      "properties": {
        "id": "mirapodo",
        "name": "Mirapodo",
        "industry": "eCommerce",
        "lon": 52.49111,
        "lat": 13.36015,
        "address": "Potsdamer Straße 192, 10783 Berlin, Germany"
      },
      "geometry": {
        "type": "Point",
        "coordinates": [13.36015, 52.49111]
      }
    },
    {
      "type": "Feature",
      "properties": {
        "id": "mister-spex",
        "name": "Mister Spex",
        "industry": "eCommerce",
        "lon": 52.5191435,
        "lat": 13.4156384,
        "address":
          "Alexa Shoppingcenter, Grunerstraße 20, 10179 Berlin, Germany"
      },
      "geometry": {
        "type": "Point",
        "coordinates": [13.4156384, 52.5191435]
      }
    },
    {
      "type": "Feature",
      "properties": {
        "id": "modomoto",
        "name": "Modomoto",
        "industry": "eCommerce",
        "lon": 52.4939329,
        "lat": 13.3983889,
        "address": "Blücherstraße 22, 10961 Berlin, Germany"
      },
      "geometry": {
        "type": "Point",
        "coordinates": [13.3983889, 52.4939329]
      }
    },
    {
      "type": "Feature",
      "properties": {
        "id": "monoqi",
        "name": "MONOQI",
        "industry": "eCommerce",
        "lon": 52.5279347,
        "lat": 13.4047576,
        "address": "Gormannstraße 22, 10119 Berlin, Germany"
      },
      "geometry": {
        "type": "Point",
        "coordinates": [13.4047576, 52.5279347]
      }
    },
    {
      "type": "Feature",
      "properties": {
        "id": "outfiterry",
        "name": "Outfiterry",
        "industry": "eCommerce"
      }
    },
    {
      "type": "Feature",
      "properties": {
        "id": "urbanara",
        "name": "Urbanara",
        "industry": "eCommerce",
        "lon": 52.526827,
        "lat": 13.4009511,
        "address": "Gipsstraße 10, 10119 Berlin, Germany"
      },
      "geometry": {
        "type": "Point",
        "coordinates": [13.4009511, 52.526827]
      }
    },
    {
      "type": "Feature",
      "properties": {
        "id": "runashop",
        "name": "RunaShop",
        "industry": "eCommerce",
        "lon": 52.5305196,
        "lat": 13.3834532,
        "address": "Invalidenstraße 112, 10115 Berlin, Germany"
      },
      "geometry": {
        "type": "Point",
        "coordinates": [13.3834532, 52.5305196]
      }
    },
    {
      "type": "Feature",
      "properties": {
        "id": "vaola",
        "name": "Vaola",
        "industry": "eCommerce",
        "lon": 52.53782,
        "lat": 13.37318,
        "address": "Chausseestraße 84, 10115 Berlin, Germany"
      },
      "geometry": {
        "type": "Point",
        "coordinates": [13.37318, 52.53782]
      }
    },
    {
      "type": "Feature",
      "properties": {
        "id": "visual-meta",
        "name": "Visual Meta",
        "industry": "eCommerce",
        "lon": 52.5241046,
        "lat": 13.4140515,
        "address": "Alexanderstraße 1-5, 10178 Berlin, Germany"
      },
      "geometry": {
        "type": "Point",
        "coordinates": [13.4140515, 52.5241046]
      }
    },
    {
      "type": "Feature",
      "properties": {
        "id": "watchmaster",
        "name": "WatchMaster",
        "industry": "eCommerce",
        "lon": 52.5120043,
        "lat": 13.3912501,
        "address": "Charlottenstraße 60, 10117 Berlin, Germany"
      },
      "geometry": {
        "type": "Point",
        "coordinates": [13.3912501, 52.5120043]
      }
    },
    {
      "type": "Feature",
      "properties": {
        "id": "wayfair",
        "name": "Wayfair",
        "industry": "eCommerce",
        "lon": 52.50323299999999,
        "lat": 13.4366897,
        "address": "Köpenicker Str. 180, 10997 Berlin, Germany"
      },
      "geometry": {
        "type": "Point",
        "coordinates": [13.4366897, 52.50323299999999]
      }
    },
    {
      "type": "Feature",
      "properties": {
        "id": "wine-in-black",
        "name": "Wine in Black",
        "industry": "eCommerce",
        "lon": 52.50997,
        "lat": 13.389749,
        "address": "Friedrichstraße 194-199, 10117 Berlin, Germany"
      },
      "geometry": {
        "type": "Point",
        "coordinates": [13.389749, 52.50997]
      }
    },
    {
      "type": "Feature",
      "properties": {
        "id": "zalando",
        "name": "Zalando",
        "industry": "eCommerce",
        "lon": 52.5263487,
        "lat": 13.4159428,
        "address": "Mollstraße 1, 10178 Berlin, Germany"
      },
      "geometry": {
        "type": "Point",
        "coordinates": [13.4159428, 52.5263487]
      }
    },
    {
      "type": "Feature",
      "properties": {
        "id": "99chairs",
        "name": "99chairs",
        "industry": "eCommerce",
        "lon": 52.50909840000001,
        "lat": 13.423177,
        "address": "Köpenicker Str. 126, 10179 Berlin, Germany"
      },
      "geometry": {
        "type": "Point",
        "coordinates": [13.423177, 52.50909840000001]
      }
    },
    {
      "type": "Feature",
      "properties": {
        "id": "ad2games",
        "name": "Ad2Games",
        "industry": "AdTech",
        "lon": 52.521412,
        "lat": 13.405186,
        "address": "Rosenstraße 17, 10178 Berlin, Germany"
      },
      "geometry": {
        "type": "Point",
        "coordinates": [13.405186, 52.521412]
      }
    },
    {
      "type": "Feature",
      "properties": {
        "id": "adjust",
        "name": "Adjust",
        "industry": "AdTech",
        "lon": 52.5283101,
        "lat": 13.4154047,
        "address": "Saarbrücker Str. 37A, 10405 Berlin, Germany"
      },
      "geometry": {
        "type": "Point",
        "coordinates": [13.4154047, 52.5283101]
      }
    },
    {
      "type": "Feature",
      "properties": {
        "id": "adsquare",
        "name": "Adsquare",
        "industry": "AdTech",
        "lon": 52.52912449999999,
        "lat": 13.4160071,
        "address": "Saarbrücker Str. 36, 10405 Berlin, Germany"
      },
      "geometry": {
        "type": "Point",
        "coordinates": [13.4160071, 52.52912449999999]
      }
    },
    {
      "type": "Feature",
      "properties": {
        "id": "applause",
        "name": "Applause",
        "industry": "AdTech",
        "lon": 52.497624,
        "lat": 13.3804301,
        "address": "Obentrautstraße 72, 10963 Berlin, Germany"
      },
      "geometry": {
        "type": "Point",
        "coordinates": [13.3804301, 52.497624]
      }
    },
    {
      "type": "Feature",
      "properties": {
        "id": "applift",
        "name": "AppLift",
        "industry": "AdTech",
        "lon": 52.521412,
        "lat": 13.405186,
        "address": "Rosenstraße 17, 10178 Berlin, Germany"
      },
      "geometry": {
        "type": "Point",
        "coordinates": [13.405186, 52.521412]
      }
    },
    {
      "type": "Feature",
      "properties": {
        "id": "crobo",
        "name": "crobo",
        "industry": "AdTech",
        "lon": 52.533275,
        "lat": 13.4102929,
        "address": "Schwedter Str. 263, 10119 Berlin, Germany"
      },
      "geometry": {
        "type": "Point",
        "coordinates": [13.4102929, 52.533275]
      }
    },
    {
      "type": "Feature",
      "properties": {
        "id": "contiamo",
        "name": "Contiamo",
        "industry": "AdTech",
        "lon": 52.49640300000001,
        "lat": 13.3578116,
        "address": "Stresemannstraße, 10781 Berlin, Germany"
      },
      "geometry": {
        "type": "Point",
        "coordinates": [13.3578116, 52.49640300000001]
      }
    },
    {
      "type": "Feature",
      "properties": {
        "id": "datapine",
        "name": "Datapine",
        "industry": "AdTech",
        "lon": 52.492355,
        "lat": 13.42858,
        "address": "Friedelstraße 27, 12047 Berlin, Germany"
      },
      "geometry": {
        "type": "Point",
        "coordinates": [13.42858, 52.492355]
      }
    },
    {
      "type": "Feature",
      "properties": {
        "id": "deltamethod",
        "name": "DeltaMethod",
        "industry": "AdTech",
        "lon": 52.5235627,
        "lat": 13.3989295,
        "address": "Oranienstraße 185, 10999 Berlin, Germany"
      },
      "geometry": {
        "type": "Point",
        "coordinates": [13.3989295, 52.5235627]
      }
    },
    {
      "type": "Feature",
      "properties": {
        "id": "fyber",
        "name": "Fyber",
        "industry": "AdTech",
        "lon": 52.52471,
        "lat": 13.38885,
        "address": "Johannisstraße 20, 10117 Berlin, Germany"
      },
      "geometry": {
        "type": "Point",
        "coordinates": [13.38885, 52.52471]
      }
    },
    {
      "type": "Feature",
      "properties": {
        "id": "glispa",
        "name": "glispa",
        "industry": "AdTech",
        "lon": 52.5484664,
        "lat": 13.4071626,
        "address": "Sonnenburger Str. 73, 10437 Berlin, Germany"
      },
      "geometry": {
        "type": "Point",
        "coordinates": [13.4071626, 52.5484664]
      }
    },
    {
      "type": "Feature",
      "properties": {
        "id": "gamegenetics",
        "name": "GameGenetics",
        "industry": "AdTech",
        "lon": 52.5161034,
        "lat": 13.4126544,
        "address": "Klosterstraße 62, 10179 Berlin, Germany"
      },
      "geometry": {
        "type": "Point",
        "coordinates": [13.4126544, 52.5161034]
      }
    },
    {
      "type": "Feature",
      "properties": {
        "id": "iconpeak",
        "name": "IconPeak",
        "industry": "AdTech",
        "lon": 52.53052,
        "lat": 13.383453,
        "address": "Invalidenstraße 112, 10115 Berlin, Germany"
      },
      "geometry": {
        "type": "Point",
        "coordinates": [13.383453, 52.53052]
      }
    },
    {
      "type": "Feature",
      "properties": {
        "id": "liquidm",
        "name": "LiquidM",
        "industry": "AdTech",
        "lon": 52.5246479,
        "lat": 13.402667,
        "address": "Rosenthaler Str. 36, 10178 Berlin, Germany"
      },
      "geometry": {
        "type": "Point",
        "coordinates": [13.402667, 52.5246479]
      }
    },
    {
      "type": "Feature",
      "properties": {
        "id": "mapegy",
        "name": "Mapegy",
        "industry": "AdTech",
        "lon": 52.512557,
        "lat": 13.316718,
        "address": "Bismarckstraße 10-12, 10625 Berlin, Germany"
      },
      "geometry": {
        "type": "Point",
        "coordinates": [13.316718, 52.512557]
      }
    },
    {
      "type": "Feature",
      "properties": {
        "id": "plista",
        "name": "Plista",
        "industry": "AdTech",
        "lon": 52.528363,
        "lat": 13.412665,
        "address": "Torstraße 33, 10119 Berlin, Germany"
      },
      "geometry": {
        "type": "Point",
        "coordinates": [13.412665, 52.528363]
      }
    },
    {
      "type": "Feature",
      "properties": {
        "id": "roqad",
        "name": "Roq.ad",
        "industry": "AdTech",
        "lon": 52.4933847,
        "lat": 13.3887912,
        "address": "Mehringdamm 33, 10961 Berlin, Germany"
      },
      "geometry": {
        "type": "Point",
        "coordinates": [13.3887912, 52.4933847]
      }
    },
    {
      "type": "Feature",
      "properties": {
        "id": "remerge",
        "name": "Remerge",
        "industry": "AdTech",
        "lon": 52.52464,
        "lat": 13.39503,
        "address": "Oranienburger Str. 27, 10117 Berlin, Germany"
      },
      "geometry": {
        "type": "Point",
        "coordinates": [13.39503, 52.52464]
      }
    },
    {
      "type": "Feature",
      "properties": {
        "id": "sociomantic",
        "name": "Sociomantic",
        "industry": "AdTech",
        "lon": 52.496069,
        "lat": 13.4220906,
        "address": "Paul-Lincke-Ufer 39-40, 10999 Berlin, Germany"
      },
      "geometry": {
        "type": "Point",
        "coordinates": [13.4220906, 52.496069]
      }
    },
    {
      "type": "Feature",
      "properties": {
        "id": "trademob",
        "name": "Trademob",
        "industry": "AdTech",
        "lon": 52.5289252,
        "lat": 13.3880405,
        "address": "Novalisstraße 10, 10115 Berlin, Germany"
      },
      "geometry": {
        "type": "Point",
        "coordinates": [13.3880405, 52.5289252]
      }
    },
    {
      "type": "Feature",
      "properties": {
        "id": "webtrekk",
        "name": "Webtrekk",
        "industry": "AdTech",
        "lon": 52.5278072,
        "lat": 13.3803064,
        "address": "Robert-Koch-Platz 4, 10115 Berlin, Germany"
      },
      "geometry": {
        "type": "Point",
        "coordinates": [13.3803064, 52.5278072]
      }
    },
    {
      "type": "Feature",
      "properties": {
        "id": "yoc",
        "name": "YOC",
        "industry": "AdTech",
        "lon": 52.5321601,
        "lat": 13.4270243,
        "address": "Greifswalder Str. 212, 10405 Berlin, Germany"
      },
      "geometry": {
        "type": "Point",
        "coordinates": [13.4270243, 52.5321601]
      }
    },
    {
      "type": "Feature",
      "properties": {
        "id": "barzahlen",
        "name": "Barzahlen",
        "industry": "FinTech",
        "lon": 52.5110654,
        "lat": 13.4054234,
        "address": "Wallstraße 14a, 10179 Berlin, Germany"
      },
      "geometry": {
        "type": "Point",
        "coordinates": [13.4054234, 52.5110654]
      }
    },
    {
      "type": "Feature",
      "properties": {
        "id": "billpay",
        "name": "BillPay",
        "industry": "FinTech",
        "lon": 52.531653,
        "lat": 13.3827421,
        "address": "Zinnowitzer Str. 1, 10115 Berlin, Germany"
      },
      "geometry": {
        "type": "Point",
        "coordinates": [13.3827421, 52.531653]
      }
    },
    {
      "type": "Feature",
      "properties": {
        "id": "bergfurst",
        "name": "Bergfürst",
        "industry": "FinTech",
        "lon": 52.523757,
        "lat": 13.380142,
        "address": "Schumannstraße 18, 10117 Berlin, Germany"
      },
      "geometry": {
        "type": "Point",
        "coordinates": [13.380142, 52.523757]
      }
    },
    {
      "type": "Feature",
      "properties": {
        "id": "bonify",
        "name": "Bonify",
        "industry": "FinTech",
        "lon": 52.506088,
        "lat": 13.430895,
        "address": "Köpenicker Str. 154, 10997 Berlin, Germany"
      },
      "geometry": {
        "type": "Point",
        "coordinates": [13.430895, 52.506088]
      }
    },
    {
      "type": "Feature",
      "properties": {
        "id": "brickgate",
        "name": "Brickgate",
        "industry": "FinTech",
        "lon": 52.537386,
        "lat": 13.378824,
        "address": "Wöhlertstraße 12-13, 10115 Berlin, Germany"
      },
      "geometry": {
        "type": "Point",
        "coordinates": [13.378824, 52.537386]
      }
    },
    {
      "type": "Feature",
      "properties": {
        "id": "cashboard",
        "name": "Cashboard",
        "industry": "FinTech",
        "lon": 52.5305196,
        "lat": 13.3834532,
        "address": "Invalidenstraße 112, 10115 Berlin, Germany"
      },
      "geometry": {
        "type": "Point",
        "coordinates": [13.3834532, 52.5305196]
      }
    },
    {
      "type": "Feature",
      "properties": {
        "id": "finleap",
        "name": "FinLeap",
        "industry": "FinTech",
        "lon": 52.5080949,
        "lat": 13.3293017,
        "address": "Hardenbergstraße 32, 10623 Berlin, Germany"
      },
      "geometry": {
        "type": "Point",
        "coordinates": [13.3293017, 52.5080949]
      }
    },
    {
      "type": "Feature",
      "properties": {
        "id": "liqid",
        "name": "LIQID",
        "industry": "FinTech",
        "lon": 52.4999506,
        "lat": 13.3106105,
        "address": "Kurfürstendamm 177, 10707 Berlin, Germany"
      },
      "geometry": {
        "type": "Point",
        "coordinates": [13.3106105, 52.4999506]
      }
    },
    {
      "type": "Feature",
      "properties": {
        "id": "mambu",
        "name": "Mambu",
        "industry": "FinTech"
      }
    },
    {
      "type": "Feature",
      "properties": {
        "id": "number26",
        "name": "Number26",
        "industry": "FinTech",
        "lon": 52.516116,
        "lat": 13.412618,
        "address": "Klosterstraße 62, 10179 Berlin, Germany"
      },
      "geometry": {
        "type": "Point",
        "coordinates": [13.412618, 52.516116]
      }
    },
    {
      "type": "Feature",
      "properties": {
        "id": "optiopay",
        "name": "OptioPay",
        "industry": "FinTech",
        "lon": 52.4954784,
        "lat": 13.4619499,
        "address": "An den Treptowers 1, 12435 Berlin, Germany"
      },
      "geometry": {
        "type": "Point",
        "coordinates": [13.4619499, 52.4954784]
      }
    },
    {
      "type": "Feature",
      "properties": {
        "id": "orderbird",
        "name": "Orderbird",
        "industry": "FinTech",
        "lon": 52.5018616,
        "lat": 13.4112619,
        "address": "Ritterstraße 12-14, 10969 Berlin, Germany"
      },
      "geometry": {
        "type": "Point",
        "coordinates": [13.4112619, 52.5018616]
      }
    },
    {
      "type": "Feature",
      "properties": {
        "id": "payleven",
        "name": "Payleven",
        "industry": "FinTech",
        "lon": 52.529822,
        "lat": 13.4119518,
        "address": "Saarbrücker Str. 20/21, 10405 Berlin, Germany"
      },
      "geometry": {
        "type": "Point",
        "coordinates": [13.4119518, 52.529822]
      }
    },
    {
      "type": "Feature",
      "properties": {
        "id": "raisin",
        "name": "Raisin",
        "industry": "FinTech",
        "lon": 52.5317005,
        "lat": 13.4260406,
        "address": "Immanuelkirchstraße 14A, 10405 Berlin, Germany"
      },
      "geometry": {
        "type": "Point",
        "coordinates": [13.4260406, 52.5317005]
      }
    },
    {
      "type": "Feature",
      "properties": {
        "id": "savedo",
        "name": "Savedo",
        "industry": "FinTech",
        "lon": 52.5238769,
        "lat": 13.4066799,
        "address": "Dircksenstraße 41, 10178 Berlin, Germany"
      },
      "geometry": {
        "type": "Point",
        "coordinates": [13.4066799, 52.5238769]
      }
    },
    {
      "type": "Feature",
      "properties": {
        "id": "smava",
        "name": "Smava",
        "industry": "FinTech",
        "lon": 52.51128,
        "lat": 13.44992,
        "address": "Kopernikusstraße 35, 10243 Berlin, Germany"
      },
      "geometry": {
        "type": "Point",
        "coordinates": [13.44992, 52.51128]
      }
    },
    {
      "type": "Feature",
      "properties": {
        "id": "inventorum",
        "name": "Inventorum",
        "industry": "Retail",
        "lon": 52.5417089,
        "lat": 13.3891794,
        "address": "Voltastraße 5, 13355 Berlin, Germany"
      },
      "geometry": {
        "type": "Point",
        "coordinates": [13.3891794, 52.5417089]
      }
    },
    {
      "type": "Feature",
      "properties": {
        "id": "itembase",
        "name": "Itembase",
        "industry": "Retail",
        "lon": 52.5038661,
        "lat": 13.3862756,
        "address": "Wilhelmstraße 118, 10963 Berlin, Germany"
      },
      "geometry": {
        "type": "Point",
        "coordinates": [13.3862756, 52.5038661]
      }
    },
    {
      "type": "Feature",
      "properties": {
        "id": "kaufda",
        "name": "KaufDa",
        "industry": "Retail",
        "lon": 52.5116936,
        "lat": 13.4527335,
        "address": "Warschauer Str. 70A, 10243 Berlin, Germany"
      },
      "geometry": {
        "type": "Point",
        "coordinates": [13.4527335, 52.5116936]
      }
    },
    {
      "type": "Feature",
      "properties": {
        "id": "kauferportal",
        "name": "Käuferportal",
        "industry": "Retail"
      }
    },
    {
      "type": "Feature",
      "properties": {
        "id": "locafox",
        "name": "Locafox",
        "industry": "Retail",
        "lon": 52.5533009,
        "lat": 13.3605023,
        "address": "Oudenarder Str. 16, 13347 Berlin, Germany"
      },
      "geometry": {
        "type": "Point",
        "coordinates": [13.3605023, 52.5533009]
      }
    },
    {
      "type": "Feature",
      "properties": {
        "id": "minodes",
        "name": "Minodes",
        "industry": "Retail",
        "lon": 52.5067072,
        "lat": 13.3934851,
        "address": "Charlottenstraße 4, 10969 Berlin, Germany"
      },
      "geometry": {
        "type": "Point",
        "coordinates": [13.3934851, 52.5067072]
      }
    },
    {
      "type": "Feature",
      "properties": {
        "id": "newstore",
        "name": "Newstore",
        "industry": "Retail",
        "lon": 52.5207321,
        "lat": 13.3819002,
        "address": "Schiffbauerdamm 22, 10117 Berlin, Germany"
      },
      "geometry": {
        "type": "Point",
        "coordinates": [13.3819002, 52.5207321]
      }
    },
    {
      "type": "Feature",
      "properties": {
        "id": "products-up",
        "name": "Products Up",
        "industry": "Retail",
        "lon": 52.5247282,
        "lat": 13.4148786,
        "address": "Alex-Wedding-Straße 5, 10178 Berlin, Germany"
      },
      "geometry": {
        "type": "Point",
        "coordinates": [13.4148786, 52.5247282]
      }
    },
    {
      "type": "Feature",
      "properties": {
        "id": "qipu",
        "name": "Qipu",
        "industry": "Retail",
        "lon": 52.5321601,
        "lat": 13.4270243,
        "address": "Greifswalder Str. 212, 10405 Berlin, Germany"
      },
      "geometry": {
        "type": "Point",
        "coordinates": [13.4270243, 52.5321601]
      }
    },
    {
      "type": "Feature",
      "properties": {
        "id": "basilicom",
        "name": "Basilicom",
        "industry": "Marketing Solutions",
        "lon": 52.5315849,
        "lat": 13.3246061,
        "address": "Sickingenstraße 70, 10553 Berlin, Germany"
      },
      "geometry": {
        "type": "Point",
        "coordinates": [13.3246061, 52.5315849]
      }
    },
    {
      "type": "Feature",
      "properties": {
        "id": "crossengage",
        "name": "CrossEngage",
        "industry": "Marketing Solutions",
        "lon": 52.5231427,
        "lat": 13.3666025,
        "address": "Bertha-Benz-Straße 5, 10557 Berlin, Germany"
      },
      "geometry": {
        "type": "Point",
        "coordinates": [13.3666025, 52.5231427]
      }
    },
    {
      "type": "Feature",
      "properties": {
        "id": "contentful",
        "name": "Contentful",
        "industry": "Marketing Solutions",
        "lon": 52.5020754,
        "lat": 13.4111829,
        "address": "Ritterstraße 12, 10969 Berlin, Germany"
      },
      "geometry": {
        "type": "Point",
        "coordinates": [13.4111829, 52.5020754]
      }
    },
    {
      "type": "Feature",
      "properties": {
        "id": "dc-media-networks",
        "name": "DC Media Networks",
        "industry": "Marketing Solutions",
        "lon": 52.5691595,
        "lat": 13.403198,
        "address": "Breite Str. 26A, 13187 Berlin, Germany"
      },
      "geometry": {
        "type": "Point",
        "coordinates": [13.403198, 52.5691595]
      }
    },
    {
      "type": "Feature",
      "properties": {
        "id": "digitaleseiten",
        "name": "DigitaleSeiten",
        "industry": "Marketing Solutions",
        "lon": 52.50891,
        "lat": 13.37291,
        "address": "Potsdamer Straße 7, 10785 Berlin, Germany"
      },
      "geometry": {
        "type": "Point",
        "coordinates": [13.37291, 52.50891]
      }
    },
    {
      "type": "Feature",
      "properties": {
        "id": "fanpage-karma",
        "name": "Fanpage Karma",
        "industry": "Marketing Solutions",
        "lon": 52.50040139999999,
        "lat": 13.4218367,
        "address": "Oranienstraße 188, 10999 Berlin, Germany"
      },
      "geometry": {
        "type": "Point",
        "coordinates": [13.4218367, 52.50040139999999]
      }
    },
    {
      "type": "Feature",
      "properties": {
        "id": "kyto",
        "name": "Kyto",
        "industry": "Marketing Solutions",
        "lon": 52.5267858,
        "lat": 13.3897725,
        "address": "Linienstraße 126, 10115 Berlin, Germany"
      },
      "geometry": {
        "type": "Point",
        "coordinates": [13.3897725, 52.5267858]
      }
    },
    {
      "type": "Feature",
      "properties": {
        "id": "linkbird",
        "name": "LinkBird",
        "industry": "Marketing Solutions",
        "lon": 52.5007826,
        "lat": 13.3223918,
        "address": "Knesebeckstraße 59-61, 10719 Berlin, Germany"
      },
      "geometry": {
        "type": "Point",
        "coordinates": [13.3223918, 52.5007826]
      }
    },
    {
      "type": "Feature",
      "properties": {
        "id": "newsletter2go",
        "name": "Newsletter2Go",
        "industry": "Marketing Solutions",
        "lon": 52.50402880000001,
        "lat": 13.3398236,
        "address": "Nürnberger Str. 8, 10787 Berlin, Germany"
      },
      "geometry": {
        "type": "Point",
        "coordinates": [13.3398236, 52.50402880000001]
      }
    },
    {
      "type": "Feature",
      "properties": {
        "id": "optivo",
        "name": "Optivo",
        "industry": "Marketing Solutions",
        "lon": 52.5111861,
        "lat": 13.4065491,
        "address": "Wallstraße 16, 10179 Berlin, Germany"
      },
      "geometry": {
        "type": "Point",
        "coordinates": [13.4065491, 52.5111861]
      }
    },
    {
      "type": "Feature",
      "properties": {
        "id": "uberall",
        "name": "Uberall",
        "industry": "Marketing Solutions",
        "lon": 52.5251165,
        "lat": 13.3915718,
        "address": "Oranienburger Str. 66, 10117 Berlin, Germany"
      },
      "geometry": {
        "type": "Point",
        "coordinates": [13.3915718, 52.5251165]
      }
    },
    {
      "type": "Feature",
      "properties": {
        "id": "ubermetrics",
        "name": "UberMetrics",
        "industry": "Marketing Solutions",
        "lon": 52.51087,
        "lat": 13.38716,
        "address": "Kronenstraße 1, 10117 Berlin, Germany"
      },
      "geometry": {
        "type": "Point",
        "coordinates": [13.38716, 52.51087]
      }
    },
    {
      "type": "Feature",
      "properties": {
        "id": "styla",
        "name": "Styla",
        "industry": "Marketing Solutions",
        "lon": 52.53783,
        "lat": 13.40645,
        "address": "Schwedter Str. 36A, 10435 Berlin, Germany"
      },
      "geometry": {
        "type": "Point",
        "coordinates": [13.40645, 52.53783]
      }
    },
    {
      "type": "Feature",
      "properties": {
        "id": "zanox",
        "name": "Zanox",
        "industry": "Marketing Solutions",
        "lon": 52.50636859999999,
        "lat": 13.3732019,
        "address": "Eichhornstraße 3, 10785 Berlin, Germany"
      },
      "geometry": {
        "type": "Point",
        "coordinates": [13.3732019, 52.50636859999999]
      }
    },
    {
      "type": "Feature",
      "properties": {
        "id": "aeria-games",
        "name": "Aeria Games",
        "industry": "Games",
        "lon": 52.49944559999999,
        "lat": 13.4492543,
        "address": "Schlesische Str. 27, 10997 Berlin, Germany"
      },
      "geometry": {
        "type": "Point",
        "coordinates": [13.4492543, 52.49944559999999]
      }
    },
    {
      "type": "Feature",
      "properties": {
        "id": "crowdpark",
        "name": "Crowdpark",
        "industry": "Games",
        "lon": 52.4901442,
        "lat": 13.435935,
        "address": "Maybachufer 48-51, 12045 Berlin, Germany"
      },
      "geometry": {
        "type": "Point",
        "coordinates": [13.435935, 52.4901442]
      }
    },
    {
      "type": "Feature",
      "properties": {
        "id": "fox-and-sheep",
        "name": "Fox & Sheep",
        "industry": "Games",
        "lon": 52.5267,
        "lat": 13.3887301,
        "address": "Linienstraße 130, 10115 Berlin, Germany"
      },
      "geometry": {
        "type": "Point",
        "coordinates": [13.3887301, 52.5267]
      }
    },
    {
      "type": "Feature",
      "properties": {
        "id": "gameduell",
        "name": "GameDuell",
        "industry": "Games",
        "lon": 52.513353,
        "lat": 13.395566,
        "address": "Taubenstraße 24-25, 10117 Berlin, Germany"
      },
      "geometry": {
        "type": "Point",
        "coordinates": [13.395566, 52.513353]
      }
    },
    {
      "type": "Feature",
      "properties": {
        "id": "kabam",
        "name": "Kabam",
        "industry": "Games",
        "lon": 52.5321601,
        "lat": 13.4270243,
        "address": "Greifswalder Str. 212, 10405 Berlin, Germany"
      },
      "geometry": {
        "type": "Point",
        "coordinates": [13.4270243, 52.5321601]
      }
    },
    {
      "type": "Feature",
      "properties": {
        "id": "kling",
        "name": "Kling",
        "industry": "Games",
        "lon": 52.52413139999999,
        "lat": 13.3022718,
        "address": "Mierendorffstraße 23, 10589 Berlin, Germany"
      },
      "geometry": {
        "type": "Point",
        "coordinates": [13.3022718, 52.52413139999999]
      }
    },
    {
      "type": "Feature",
      "properties": {
        "id": "softgames",
        "name": "Softgames",
        "industry": "Games",
        "lon": 52.52836139999999,
        "lat": 13.4124563,
        "address": "Torstraße 35, 10119 Berlin, Germany"
      },
      "geometry": {
        "type": "Point",
        "coordinates": [13.4124563, 52.52836139999999]
      }
    },
    {
      "type": "Feature",
      "properties": {
        "id": "treasurehuntstudios",
        "name": "TreasureHuntStudios",
        "industry": "Games",
        "lon": 52.50031999999999,
        "lat": 13.4364801,
        "address": "Skalitzer Str. 85-86, 10997 Berlin, Germany"
      },
      "geometry": {
        "type": "Point",
        "coordinates": [13.4364801, 52.50031999999999]
      }
    },
    {
      "type": "Feature",
      "properties": {
        "id": "wooga",
        "name": "Wooga",
        "industry": "Games"
      }
    },
    {
      "type": "Feature",
      "properties": {
        "id": "dubsmash",
        "name": "Dubsmash",
        "industry": "App",
        "lon": 52.519909,
        "lat": 13.4039897,
        "address": "Karl-Liebknecht-Str. 5, 10178 Berlin, Germany"
      },
      "geometry": {
        "type": "Point",
        "coordinates": [13.4039897, 52.519909]
      }
    },
    {
      "type": "Feature",
      "properties": {
        "id": "eyeem",
        "name": "EyeEm",
        "industry": "App",
        "lon": 52.49701229999999,
        "lat": 13.41861,
        "address": "Kohlfurter Str. 41/43, 10999 Berlin, Germany"
      },
      "geometry": {
        "type": "Point",
        "coordinates": [13.41861, 52.49701229999999]
      }
    },
    {
      "type": "Feature",
      "properties": {
        "id": "kitchen-stories",
        "name": "Kitchen Stories",
        "industry": "App",
        "lon": 52.5020047,
        "lat": 13.4295735,
        "address": "Muskauer Str. 43, 10997 Berlin, Germany"
      },
      "geometry": {
        "type": "Point",
        "coordinates": [13.4295735, 52.5020047]
      }
    },
    {
      "type": "Feature",
      "properties": {
        "id": "memorado",
        "name": "Memorado",
        "industry": "App",
        "lon": 52.4966706,
        "lat": 13.4225608,
        "address": "Paul-Lincke-Ufer 39/40, 10999 Berlin, Germany"
      },
      "geometry": {
        "type": "Point",
        "coordinates": [13.4225608, 52.4966706]
      }
    },
    {
      "type": "Feature",
      "properties": {
        "id": "mytaxi",
        "name": "MyTaxi",
        "industry": "App",
        "lon": 52.46631,
        "lat": 13.38496,
        "address": "Alt-Tempelhof 22, 12103 Berlin, Germany"
      },
      "geometry": {
        "type": "Point",
        "coordinates": [13.38496, 52.46631]
      }
    },
    {
      "type": "Feature",
      "properties": {
        "id": "onefootball",
        "name": "Onefootball",
        "industry": "App",
        "lon": 52.5321601,
        "lat": 13.4270243,
        "address": "Greifswalder Str. 212, 10405 Berlin, Germany"
      },
      "geometry": {
        "type": "Point",
        "coordinates": [13.4270243, 52.5321601]
      }
    },
    {
      "type": "Feature",
      "properties": {
        "id": "parktag",
        "name": "ParkTag",
        "industry": "App",
        "lon": 52.50727,
        "lat": 13.29686,
        "address": "Kantstraße 81, 10627 Berlin, Germany"
      },
      "geometry": {
        "type": "Point",
        "coordinates": [13.29686, 52.50727]
      }
    },
    {
      "type": "Feature",
      "properties": {
        "id": "tvsmiles",
        "name": "TvSmiles",
        "industry": "App",
        "lon": 52.50334,
        "lat": 13.31608,
        "address": "Mommsenstraße 11, 10629 Berlin, Germany"
      },
      "geometry": {
        "type": "Point",
        "coordinates": [13.31608, 52.50334]
      }
    },
    {
      "type": "Feature",
      "properties": {
        "id": "clue",
        "name": "Clue",
        "industry": "Health",
        "lon": 52.500417,
        "lat": 13.419501,
        "address": "Adalbertstraße 8, 10999 Berlin, Germany"
      },
      "geometry": {
        "type": "Point",
        "coordinates": [13.419501, 52.500417]
      }
    },
    {
      "type": "Feature",
      "properties": {
        "id": "mediteo",
        "name": "Mediteo",
        "industry": "Health"
      }
    },
    {
      "type": "Feature",
      "properties": {
        "id": "meedoc",
        "name": "MeeDoc",
        "industry": "Health",
        "lon": 52.5134602,
        "lat": 13.3971355,
        "address": "Oberwallstraße 10, 10117 Berlin, Germany"
      },
      "geometry": {
        "type": "Point",
        "coordinates": [13.3971355, 52.5134602]
      }
    },
    {
      "type": "Feature",
      "properties": {
        "id": "medexo",
        "name": "Medexo",
        "industry": "Health",
        "lon": 52.4823574,
        "lat": 13.3495234,
        "address": "Hauptstraße 117, 10827 Berlin, Germany"
      },
      "geometry": {
        "type": "Point",
        "coordinates": [13.3495234, 52.4823574]
      }
    },
    {
      "type": "Feature",
      "properties": {
        "id": "medigo",
        "name": "Medigo",
        "industry": "Health",
        "lon": 52.5272158,
        "lat": 13.4030494,
        "address": "Rosenthaler Str. 13, 10119 Berlin, Germany"
      },
      "geometry": {
        "type": "Point",
        "coordinates": [13.4030494, 52.5272158]
      }
    },
    {
      "type": "Feature",
      "properties": {
        "id": "neuronation",
        "name": "NeuroNation",
        "industry": "Health",
        "lon": 52.50089759999999,
        "lat": 13.412989,
        "address": "Ritterstraße 3, 10969 Berlin, Germany"
      },
      "geometry": {
        "type": "Point",
        "coordinates": [13.412989, 52.50089759999999]
      }
    },
    {
      "type": "Feature",
      "properties": {
        "id": "sanubi",
        "name": "Sanubi",
        "industry": "Health",
        "lon": 52.4964281,
        "lat": 13.367232,
        "address": "Bülowstraße 66, 10783 Berlin, Germany"
      },
      "geometry": {
        "type": "Point",
        "coordinates": [13.367232, 52.4964281]
      }
    },
    {
      "type": "Feature",
      "properties": {
        "id": "babbel",
        "name": "Babbel",
        "industry": "EduTech",
        "lon": 52.5246187,
        "lat": 13.4082086,
        "address": "Max-Beer-Straße 2, 10119 Berlin, Germany"
      },
      "geometry": {
        "type": "Point",
        "coordinates": [13.4082086, 52.5246187]
      }
    },
    {
      "type": "Feature",
      "properties": {
        "id": "blinkist",
        "name": "Blinkist",
        "industry": "EduTech",
        "lon": 52.4735112,
        "lat": 13.4572666,
        "address": "Sonnenallee 223, 12059 Berlin, Germany"
      },
      "geometry": {
        "type": "Point",
        "coordinates": [13.4572666, 52.4735112]
      }
    },
    {
      "type": "Feature",
      "properties": {
        "id": "iversity",
        "name": "Iversity",
        "industry": "EduTech",
        "lon": 52.5254439,
        "lat": 13.3974704,
        "address": "Krausnickstraße 16, 10115 Berlin, Germany"
      },
      "geometry": {
        "type": "Point",
        "coordinates": [13.3974704, 52.5254439]
      }
    },
    {
      "type": "Feature",
      "properties": {
        "id": "klab-edumedia",
        "name": "K.Lab Edumedia",
        "industry": "EduTech",
        "lon": 52.4794012,
        "lat": 13.4369415,
        "address": "Karl-Marx-Straße 100, 12043 Berlin, Germany"
      },
      "geometry": {
        "type": "Point",
        "coordinates": [13.4369415, 52.4794012]
      }
    },
    {
      "type": "Feature",
      "properties": {
        "id": "research-gate",
        "name": "Research Gate",
        "industry": "EduTech",
        "lon": 52.53073269999999,
        "lat": 13.3844534,
        "address": "Invalidenstraße 115, 10115 Berlin, Germany"
      },
      "geometry": {
        "type": "Point",
        "coordinates": [13.3844534, 52.53073269999999]
      }
    },
    {
      "type": "Feature",
      "properties": {
        "id": "skive",
        "name": "Skive",
        "industry": "EduTech",
        "lon": 52.47399,
        "lat": 13.4574199,
        "address": "Sonnenallee 223A, 12059 Berlin, Germany"
      },
      "geometry": {
        "type": "Point",
        "coordinates": [13.4574199, 52.47399]
      }
    },
    {
      "type": "Feature",
      "properties": {
        "id": "sofatutor",
        "name": "SofaTutor",
        "industry": "EduTech",
        "lon": 52.51181829999999,
        "lat": 13.4558557,
        "address": "Grünberger Str. 54, 10245 Berlin, Germany"
      },
      "geometry": {
        "type": "Point",
        "coordinates": [13.4558557, 52.51181829999999]
      }
    },
    {
      "type": "Feature",
      "properties": {
        "id": "abroadwith",
        "name": "AbroadWith",
        "industry": "Travel",
        "lon": 52.5099664,
        "lat": 13.4669373,
        "address": "Weserstraße 14, 10247 Berlin, Germany"
      },
      "geometry": {
        "type": "Point",
        "coordinates": [13.4669373, 52.5099664]
      }
    },
    {
      "type": "Feature",
      "properties": {
        "id": "getyourguide",
        "name": "GetYourGuide",
        "industry": "Travel",
        "lon": 52.5439763,
        "lat": 13.4404115,
        "address": "Erich-Weinert-Straße 145, 10409 Berlin, Germany"
      },
      "geometry": {
        "type": "Point",
        "coordinates": [13.4404115, 52.5439763]
      }
    },
    {
      "type": "Feature",
      "properties": {
        "id": "goeuro",
        "name": "GoEuro",
        "industry": "Travel",
        "lon": 52.53085009999999,
        "lat": 13.4109222,
        "address": "Schönhauser Allee 180, 10119 Berlin, Germany"
      },
      "geometry": {
        "type": "Point",
        "coordinates": [13.4109222, 52.53085009999999]
      }
    },
    {
      "type": "Feature",
      "properties": {
        "id": "guestbird",
        "name": "Guestbird",
        "industry": "Travel"
      }
    },
    {
      "type": "Feature",
      "properties": {
        "id": "holidaypirates",
        "name": "HolidayPirates",
        "industry": "Travel",
        "lon": 52.51349399999999,
        "lat": 13.412735,
        "address": "Wallstraße 59, 10179 Berlin, Germany"
      },
      "geometry": {
        "type": "Point",
        "coordinates": [13.412735, 52.51349399999999]
      }
    },
    {
      "type": "Feature",
      "properties": {
        "id": "suitepad",
        "name": "SuitePad",
        "industry": "Travel",
        "lon": 52.50416999999999,
        "lat": 13.39051,
        "address": "Friedrichstraße 224, 10969 Berlin, Germany"
      },
      "geometry": {
        "type": "Point",
        "coordinates": [13.39051, 52.50416999999999]
      }
    },
    {
      "type": "Feature",
      "properties": {
        "id": "wimdu",
        "name": "Wimdu",
        "industry": "Travel",
        "lon": 52.5418972,
        "lat": 13.3896349,
        "address": "Voltastraße 5, 13355 Berlin, Germany"
      },
      "geometry": {
        "type": "Point",
        "coordinates": [13.3896349, 52.5418972]
      }
    },
    {
      "type": "Feature",
      "properties": {
        "id": "zizoo",
        "name": "Zizoo",
        "industry": "Travel",
        "lon": 52.4951776,
        "lat": 13.3953358,
        "address": "Zossener Str. 56, 10961 Berlin, Germany"
      },
      "geometry": {
        "type": "Point",
        "coordinates": [13.3953358, 52.4951776]
      }
    },
    {
      "type": "Feature",
      "properties": {
        "id": "bonativo",
        "name": "Bonativo",
        "industry": "Food Delivery",
        "lon": 52.5235687,
        "lat": 13.3872835,
        "address": "Friedrichstraße 133, 10117 Berlin, Germany"
      },
      "geometry": {
        "type": "Point",
        "coordinates": [13.3872835, 52.5235687]
      }
    },
    {
      "type": "Feature",
      "properties": {
        "id": "deliveroo",
        "name": "Deliveroo",
        "industry": "Food Delivery",
        "lon": 52.49714220000001,
        "lat": 13.3131286,
        "address": "Bregenzer Str. 3, 10707 Berlin, Germany"
      },
      "geometry": {
        "type": "Point",
        "coordinates": [13.3131286, 52.49714220000001]
      }
    },
    {
      "type": "Feature",
      "properties": {
        "id": "delivery-hero",
        "name": "Delivery Hero",
        "industry": "Food Delivery",
        "lon": 52.5247258,
        "lat": 13.3930329,
        "address": "70 Oranienburger Straße, 10117 Berlin, Germany"
      },
      "geometry": {
        "type": "Point",
        "coordinates": [13.3930329, 52.5247258]
      }
    },
    {
      "type": "Feature",
      "properties": {
        "id": "eatfirst",
        "name": "EatFirst",
        "industry": "Food Delivery",
        "lon": 52.52417,
        "lat": 13.4138971,
        "address": "Alexanderstraße 1, 10178 Berlin, Germany"
      },
      "geometry": {
        "type": "Point",
        "coordinates": [13.4138971, 52.52417]
      }
    },
    {
      "type": "Feature",
      "properties": {
        "id": "foodora",
        "name": "Foodora",
        "industry": "Food Delivery",
        "lon": 52.52469869999999,
        "lat": 13.3929251,
        "address": "Oranienburger Str. 70, 10117 Berlin, Germany"
      },
      "geometry": {
        "type": "Point",
        "coordinates": [13.3929251, 52.52469869999999]
      }
    },
    {
      "type": "Feature",
      "properties": {
        "id": "foodpanda",
        "name": "Foodpanda",
        "industry": "Food Delivery",
        "lon": 52.52469869999999,
        "lat": 13.3929251,
        "address": "Oranienburger Str. 70, 10117 Berlin, Germany"
      },
      "geometry": {
        "type": "Point",
        "coordinates": [13.3929251, 52.52469869999999]
      }
    },
    {
      "type": "Feature",
      "properties": {
        "id": "hellofresh",
        "name": "HelloFresh",
        "industry": "Food Delivery"
      }
    },
    {
      "type": "Feature",
      "properties": {
        "id": "marley-spoon",
        "name": "Marley Spoon",
        "industry": "Food Delivery",
        "lon": 52.49623,
        "lat": 13.4221,
        "address": "Paul-Lincke-Ufer 39, 10999 Berlin, Germany"
      },
      "geometry": {
        "type": "Point",
        "coordinates": [13.4221, 52.49623]
      }
    },
    {
      "type": "Feature",
      "properties": {
        "id": "auto1-group",
        "name": "Auto1 Group",
        "industry": "Service",
        "lon": 52.4890507,
        "lat": 13.3980086,
        "address": "Bergmannstraße 72, 10961 Berlin, Germany"
      },
      "geometry": {
        "type": "Point",
        "coordinates": [13.3980086, 52.4890507]
      }
    },
    {
      "type": "Feature",
      "properties": {
        "id": "blacklane",
        "name": "Blacklane",
        "industry": "Service"
      }
    },
    {
      "type": "Feature",
      "properties": {
        "id": "book-a-tiger",
        "name": "Book a Tiger",
        "industry": "Service",
        "lon": 52.5130251,
        "lat": 13.4178763,
        "address": "Brückenstraße 5A, 10179 Berlin, Germany"
      },
      "geometry": {
        "type": "Point",
        "coordinates": [13.4178763, 52.5130251]
      }
    },
    {
      "type": "Feature",
      "properties": {
        "id": "carmudi",
        "name": "Carmudi",
        "industry": "Service",
        "lon": 52.5235687,
        "lat": 13.3872835,
        "address": "Friedrichstraße 133, 10117 Berlin, Germany"
      },
      "geometry": {
        "type": "Point",
        "coordinates": [13.3872835, 52.5235687]
      }
    },
    {
      "type": "Feature",
      "properties": {
        "id": "helpling",
        "name": "Helpling",
        "industry": "Service",
        "lon": 52.513933,
        "lat": 13.387211,
        "address": "Jägerstraße 67, 10117 Berlin, Germany"
      },
      "geometry": {
        "type": "Point",
        "coordinates": [13.387211, 52.513933]
      }
    },
    {
      "type": "Feature",
      "properties": {
        "id": "service-parnter-one",
        "name": "Service Parnter ONE",
        "industry": "Service",
        "lon": 52.5332181,
        "lat": 13.4244831,
        "address": "Winsstraße 62, 10405 Berlin, Germany"
      },
      "geometry": {
        "type": "Point",
        "coordinates": [13.4244831, 52.5332181]
      }
    },
    {
      "type": "Feature",
      "properties": {
        "id": "thermondo",
        "name": "Thermondo",
        "industry": "Service",
        "lon": 52.53587,
        "lat": 13.39725,
        "address": "Brunnenstraße 153, 10115 Berlin, Germany"
      },
      "geometry": {
        "type": "Point",
        "coordinates": [13.39725, 52.53587]
      }
    },
    {
      "type": "Feature",
      "properties": {
        "id": "vimcar",
        "name": "Vimcar",
        "industry": "Service",
        "lon": 52.499465,
        "lat": 13.4276,
        "address": "Skalitzer Str. 104, 10997 Berlin, Germany"
      },
      "geometry": {
        "type": "Point",
        "coordinates": [13.4276, 52.499465]
      }
    },
    {
      "type": "Feature",
      "properties": {
        "id": "comatch",
        "name": "COMATCH",
        "industry": "HR",
        "lon": 52.49445,
        "lat": 13.4230699,
        "address": "Schinkestraße 20, 12047 Berlin, Germany"
      },
      "geometry": {
        "type": "Point",
        "coordinates": [13.4230699, 52.49445]
      }
    },
    {
      "type": "Feature",
      "properties": {
        "id": "gohiring",
        "name": "GoHiring",
        "industry": "HR",
        "lon": 52.4918111,
        "lat": 13.4275503,
        "address": "Friedelstraße 40, 12047 Berlin, Germany"
      },
      "geometry": {
        "type": "Point",
        "coordinates": [13.4275503, 52.4918111]
      }
    },
    {
      "type": "Feature",
      "properties": {
        "id": "honeypot",
        "name": "HONEYPOT",
        "industry": "HR",
        "lon": 52.5407273,
        "lat": 13.4126144,
        "address": "Schönhauser Allee 45, 10435 Berlin, Germany"
      },
      "geometry": {
        "type": "Point",
        "coordinates": [13.4126144, 52.5407273]
      }
    },
    {
      "type": "Feature",
      "properties": {
        "id": "heavenhr",
        "name": "HeavenHR",
        "industry": "HR",
        "lon": 52.53216,
        "lat": 13.427024,
        "address": "Greifswalder Str. 212, 10405 Berlin, Germany"
      },
      "geometry": {
        "type": "Point",
        "coordinates": [13.427024, 52.53216]
      }
    },
    {
      "type": "Feature",
      "properties": {
        "id": "tandemploy",
        "name": "Tandemploy",
        "industry": "HR",
        "lon": 52.5314862,
        "lat": 13.4062657,
        "address": "Choriner Str. 3, 10119 Berlin, Germany"
      },
      "geometry": {
        "type": "Point",
        "coordinates": [13.4062657, 52.5314862]
      }
    },
    {
      "type": "Feature",
      "properties": {
        "id": "viasto",
        "name": "Viasto",
        "industry": "HR",
        "lon": 52.5022146,
        "lat": 13.3532118,
        "address": "Karl-Heinrich-Ulrichs-Straße 05, 10787 Berlin, Germany"
      },
      "geometry": {
        "type": "Point",
        "coordinates": [13.3532118, 52.5022146]
      }
    },
    {
      "type": "Feature",
      "properties": {
        "id": "lamudi",
        "name": "Lamudi",
        "industry": "Real Estate",
        "lon": 52.4951776,
        "lat": 13.3953359,
        "address": "Zossener Str. 56, 10961 Berlin, Germany"
      },
      "geometry": {
        "type": "Point",
        "coordinates": [13.3953359, 52.4951776]
      }
    },
    {
      "type": "Feature",
      "properties": {
        "id": "immobilienscout",
        "name": "ImmobilienScout",
        "industry": "Real Estate",
        "lon": 52.5124602,
        "lat": 13.4313378,
        "address": "Andreasstraße 10, 10243 Berlin, Germany"
      },
      "geometry": {
        "type": "Point",
        "coordinates": [13.4313378, 52.5124602]
      }
    },
    {
      "type": "Feature",
      "properties": {
        "id": "mcmakler",
        "name": "McMakler",
        "industry": "Real Estate",
        "lon": 52.52809999999999,
        "lat": 13.41347,
        "address": "Torstraße 19, 10119 Berlin, Germany"
      },
      "geometry": {
        "type": "Point",
        "coordinates": [13.41347, 52.52809999999999]
      }
    },
    {
      "type": "Feature",
      "properties": {
        "id": "mykeys24",
        "name": "MyKeys24",
        "industry": "Real Estate",
        "lon": 52.47488999999999,
        "lat": 13.32056,
        "address": "Laubacher Str. 21, 14197 Berlin, Germany"
      },
      "geometry": {
        "type": "Point",
        "coordinates": [13.32056, 52.47488999999999]
      }
    },
    {
      "type": "Feature",
      "properties": {
        "id": "movinga",
        "name": "Movinga",
        "industry": "Real Estate",
        "lon": 52.5484538,
        "lat": 13.4065494,
        "address": "Sonnenburger Str. 73, 10437 Berlin, Germany"
      },
      "geometry": {
        "type": "Point",
        "coordinates": [13.4065494, 52.5484538]
      }
    },
    {
      "type": "Feature",
      "properties": {
        "id": "ableton",
        "name": "Ableton",
        "industry": "Music",
        "lon": 52.52961610000001,
        "lat": 13.4103097,
        "address": "Schönhauser Allee 6/7, 10119 Berlin, Germany"
      },
      "geometry": {
        "type": "Point",
        "coordinates": [13.4103097, 52.52961610000001]
      }
    },
    {
      "type": "Feature",
      "properties": {
        "id": "lofelt",
        "name": "Lofelt",
        "industry": "Music",
        "lon": 52.49402200000001,
        "lat": 13.446336,
        "address": "Lofelt GmbH, Lohmühlenstraße 65, 12435 Berlin, Germany"
      },
      "geometry": {
        "type": "Point",
        "coordinates": [13.446336, 52.49402200000001]
      }
    },
    {
      "type": "Feature",
      "properties": {
        "id": "naitive-instruments",
        "name": "Naitive Instruments",
        "industry": "Music",
        "lon": 52.4991645,
        "lat": 13.4477158,
        "address": "Schlesische Str. 29/30, 10997 Berlin, Germany"
      },
      "geometry": {
        "type": "Point",
        "coordinates": [13.4477158, 52.4991645]
      }
    },
    {
      "type": "Feature",
      "properties": {
        "id": "soundcloud",
        "name": "SoundCloud",
        "industry": "Music",
        "lon": 52.5371727,
        "lat": 13.39474,
        "address": "Rheinsberger Str. 76/77, 10115 Berlin, Germany"
      },
      "geometry": {
        "type": "Point",
        "coordinates": [13.39474, 52.5371727]
      }
    },
    {
      "type": "Feature",
      "properties": {
        "id": "airfy",
        "name": "Airfy",
        "industry": "Other"
      }
    },
    {
      "type": "Feature",
      "properties": {
        "id": "ascribe",
        "name": "Ascribe",
        "industry": "Other",
        "lon": 52.5490785,
        "lat": 13.4191687,
        "address": "Wichertstraße 14A, 10439 Berlin, Germany"
      },
      "geometry": {
        "type": "Point",
        "coordinates": [13.4191687, 52.5490785]
      }
    },
    {
      "type": "Feature",
      "properties": {
        "id": "candis",
        "name": "Candis",
        "industry": "Other",
        "lon": 52.5420574,
        "lat": 13.4247208,
        "address": "Stubbenkammerstraße 3, 10437 Berlin, Germany"
      },
      "geometry": {
        "type": "Point",
        "coordinates": [13.4247208, 52.5420574]
      }
    },
    {
      "type": "Feature",
      "properties": {
        "id": "complevo",
        "name": "Complevo",
        "industry": "Other",
        "lon": 52.51274,
        "lat": 13.31667,
        "address": "Bismarckstraße 10, 10625 Berlin, Germany"
      },
      "geometry": {
        "type": "Point",
        "coordinates": [13.31667, 52.51274]
      }
    },
    {
      "type": "Feature",
      "properties": {
        "id": "friendsurance",
        "name": "Friendsurance",
        "industry": "Other",
        "lon": 52.4938262,
        "lat": 13.3878711,
        "address": "Mehringdamm 32, 10961 Berlin, Germany"
      },
      "geometry": {
        "type": "Point",
        "coordinates": [13.3878711, 52.4938262]
      }
    },
    {
      "type": "Feature",
      "properties": {
        "id": "here",
        "name": "Here",
        "industry": "Other",
        "lon": 52.530932,
        "lat": 13.3849151,
        "address": "Invalidenstraße 116, 10115 Berlin, Germany"
      },
      "geometry": {
        "type": "Point",
        "coordinates": [13.3849151, 52.530932]
      }
    },
    {
      "type": "Feature",
      "properties": {
        "id": "homify",
        "name": "Homify",
        "industry": "Other",
        "lon": 52.5623259,
        "lat": 13.3542647,
        "address": "Holländerstraße 34, 13407 Berlin, Germany"
      },
      "geometry": {
        "type": "Point",
        "coordinates": [13.3542647, 52.5623259]
      }
    },
    {
      "type": "Feature",
      "properties": {
        "id": "inselberg",
        "name": "Inselberg",
        "industry": "Other",
        "lon": 52.5294,
        "lat": 13.39035,
        "address": "Borsigstraße 8, 10115 Berlin, Germany"
      },
      "geometry": {
        "type": "Point",
        "coordinates": [13.39035, 52.5294]
      }
    },
    {
      "type": "Feature",
      "properties": {
        "id": "kiwi",
        "name": "KIWI",
        "industry": "Other",
        "lon": 52.5413677,
        "lat": 13.3900125,
        "address": "Wattstraße 11, 13355 Berlin, Germany"
      },
      "geometry": {
        "type": "Point",
        "coordinates": [13.3900125, 52.5413677]
      }
    },
    {
      "type": "Feature",
      "properties": {
        "id": "klickrent",
        "name": "Klickrent",
        "industry": "Other",
        "lon": 52.4897337,
        "lat": 13.4554343,
        "address": "Elsenstraße 106, 12435 Berlin, Germany"
      },
      "geometry": {
        "type": "Point",
        "coordinates": [13.4554343, 52.4897337]
      }
    },
    {
      "type": "Feature",
      "properties": {
        "id": "labfolder",
        "name": "Labfolder",
        "industry": "Other",
        "lon": 52.5156931,
        "lat": 13.4730076,
        "address": "Pettenkoferstraße 4A, 10247 Berlin, Germany"
      },
      "geometry": {
        "type": "Point",
        "coordinates": [13.4730076, 52.5156931]
      }
    },
    {
      "type": "Feature",
      "properties": {
        "id": "lock8",
        "name": "Lock8",
        "industry": "Other",
        "lon": 52.5274674,
        "lat": 13.4028107,
        "address": "Rosenthaler Str. 13, 10119 Berlin, Germany"
      },
      "geometry": {
        "type": "Point",
        "coordinates": [13.4028107, 52.5274674]
      }
    },
    {
      "type": "Feature",
      "properties": {
        "id": "novoda",
        "name": "Novoda",
        "industry": "Other",
        "lon": 52.51156,
        "lat": 13.45403,
        "address":
          "Hinterhof, Rechts, 3.OG, Grünberger Straße 44a, 10245 Berlin, Germany"
      },
      "geometry": {
        "type": "Point",
        "coordinates": [13.45403, 52.51156]
      }
    },
    {
      "type": "Feature",
      "properties": {
        "id": "numberfour",
        "name": "NumberFour",
        "industry": "Other",
        "lon": 52.52975,
        "lat": 13.410529,
        "address": "Schönhauser Allee 8, 10119 Berlin, Germany"
      },
      "geometry": {
        "type": "Point",
        "coordinates": [13.410529, 52.52975]
      }
    },
    {
      "type": "Feature",
      "properties": {
        "id": "transloadit",
        "name": "Transloadit",
        "industry": "Other",
        "lon": 52.5146026,
        "lat": 13.3889642,
        "address": "Friedrichstraße 171, 10117 Berlin, Germany"
      },
      "geometry": {
        "type": "Point",
        "coordinates": [13.3889642, 52.5146026]
      }
    },
    {
      "type": "Feature",
      "properties": {
        "id": "trecker",
        "name": "Trecker",
        "industry": "Other",
        "lon": 52.5160801,
        "lat": 13.4125048,
        "address": "Klosterstraße 62, 10179 Berlin, Germany"
      },
      "geometry": {
        "type": "Point",
        "coordinates": [13.4125048, 52.5160801]
      }
    },
    {
      "type": "Feature",
      "properties": {
        "id": "travis-ci",
        "name": "Travis CI",
        "industry": "Other",
        "lon": 52.51786999999999,
        "lat": 13.45572,
        "address": "Rigaer Str. 8, 10247 Berlin, Germany"
      },
      "geometry": {
        "type": "Point",
        "coordinates": [13.45572, 52.51786999999999]
      }
    },
    {
      "type": "Feature",
      "properties": {
        "id": "think-cell",
        "name": "Think cell",
        "industry": "Other",
        "lon": 52.528697,
        "lat": 13.387687,
        "address": "Chausseestraße 8, 10115 Berlin, Germany"
      },
      "geometry": {
        "type": "Point",
        "coordinates": [13.387687, 52.528697]
      }
    },
    {
      "type": "Feature",
      "properties": {
        "id": "ubitricity",
        "name": "Ubitricity",
        "industry": "Other",
        "lon": 52.480196,
        "lat": 13.3551639,
        "address": "EUREF-Campus 7-8,, 10829 Berlin, Germany"
      },
      "geometry": {
        "type": "Point",
        "coordinates": [13.3551639, 52.480196]
      }
    },
    {
      "type": "Feature",
      "properties": {
        "id": "vrnow",
        "name": "VRnow",
        "industry": "Other",
        "lon": 52.53644999999999,
        "lat": 13.40039,
        "address": "Anklamer Str. 28, 10115 Berlin, Germany"
      },
      "geometry": {
        "type": "Point",
        "coordinates": [13.40039, 52.53644999999999]
      }
    },
    {
      "type": "Feature",
      "properties": {
        "id": "zattoo",
        "name": "Zattoo",
        "industry": "Other",
        "lon": 52.47399,
        "lat": 13.4574199,
        "address": "Sonnenallee 223 a, 12059 Berlin, Germany"
      },
      "geometry": {
        "type": "Point",
        "coordinates": [13.4574199, 52.47399]
      }
    },
    {
      "type": "Feature",
      "properties": {
        "id": "zenmate",
        "name": "ZenMate",
        "industry": "Other",
        "lon": 52.5018616,
        "lat": 13.4112619,
        "address": "Ritterstraße 12-14, 10969 Berlin, Germany"
      },
      "geometry": {
        "type": "Point",
        "coordinates": [13.4112619, 52.5018616]
      }
    },
    {
      "type": "Feature",
      "properties": {
        "id": "signavio",
        "name": "Signavio",
        "industry": "Other"
      }
    },
    {
      "type": "Feature",
      "properties": {
        "id": "9cookies",
        "name": "9Cookies",
        "industry": "Other",
        "lon": 52.5101723,
        "lat": 13.4013442,
        "address": "Axel-Springer-Straße 54B, 10117 Berlin, Germany"
      },
      "geometry": {
        "type": "Point",
        "coordinates": [13.4013442, 52.5101723]
      }
    }
  ]
}
